<?xml version="1.0" encoding="UTF-8" standalone="yes"?>
<gpx version="1.1" creator="OsmAnd" xmlns="http://www.topografix.com/GPX/1/1" xmlns:xsi="http://www.w3.org/2001/XMLSchema-instance" xsi:schemaLocation="http://www.topografix.com/GPX/1/1 http://www.topografix.com/GPX/1/1/gpx.xsd">
<wpt lat="60.109113" lon="30.312008">
  <name>Yukki [closed], Saint-Petersburg, Russia</name>
  <extensions>
    <color>#3f51b5</color>
  </extensions>
  <desc>2010 https://yadi.sk/a/7A-kxmkNqsGig
2012 https://yadi.sk/a/JYWybW0kqsaVV</desc>
</wpt>
<wpt lat="51.190326" lon="8.5070645">
  <name>Winterberg [partly closed], Germany</name>
  <extensions>
    <color>#3f51b5</color>
  </extensions>
  <desc>2010 https://yadi.sk/a/cB_KZHpaqrNNy
2011 https://yadi.sk/a/yKBgcbQDqsHNF</desc>
</wpt>
<wpt lat="51.286133" lon="8.6085244">
  <name>Willingen, Germany</name>
  <extensions>
    <color>#3f51b5</color>
  </extensions>
  <desc>2011 https://yadi.sk/a/1xy3V9hJqsHiD</desc>
</wpt>
<wpt lat="50.018615" lon="4.637581">
  <name>Wanyi Park, Belgium</name>
  <extensions>
    <color>#3f51b5</color>
  </extensions>
  <desc>2007 https://yadi.sk/a/v1uQtB-0qhaLo
2008 https://yadi.sk/a/o3XZfX4fqhbWg
2010 https://yadi.sk/a/eKu0_pC8qrN4p
2011 https://yadi.sk/a/fwzgBQMoqsHEb
2013 https://yadi.sk/a/WWCoXNL4qskjC
2017 https://yadi.sk/a/mIYmIhXClFlIog</desc>
</wpt>
<wpt lat="-22.230327" lon="-43.049825">
  <name>Trilhas do Olimpo, Petropolis, Brazil</name>
  <extensions>
    <color>#3f51b5</color>
  </extensions>
  <desc>2013 https://yadi.sk/a/6TuEFsroqtQtZ</desc>
</wpt>
<wpt lat="-30.118601" lon="-51.056599">
  <name>Swell [private], Porto Alegre, Brazil</name>
  <extensions>
    <color>#3f51b5</color>
  </extensions>
  <desc>2013 https://yadi.sk/a/d4ikgDF_qtSB2</desc>
</wpt>
<wpt lat="42.665182" lon="24.747906">
  <name>Shambhala, Sopot, Bulgaria</name>
  <extensions>
    <color>#3f51b5</color>
  </extensions>
  <desc>2012 https://yadi.sk/a/T6A0mP54qsKpW</desc>
</wpt>
<wpt lat="43.629287" lon="1.4769108">
  <name>Roseraie, Toulouse, France</name>
  <extensions>
    <color>#3f51b5</color>
  </extensions>
  <desc>2013 https://yadi.sk/a/cegCbB0Eqsfyh</desc>
</wpt>
<wpt lat="42.941889" lon="0.28564595">
  <name>Payolle, France</name>
  <extensions>
    <color>#3f51b5</color>
  </extensions>
  <desc>2013 https://yadi.sk/a/ePMgPHVNqsiCA</desc>
</wpt>
<wpt lat="55.600965" lon="37.703072">
  <name>Orekhovo, Moscow, Russia</name>
  <extensions>
    <color>#3f51b5</color>
  </extensions>
  <desc>2012 https://yadi.sk/a/d6Zju543qsb8L
2013 https://yadi.sk/a/XlmaTBb0qskQZ
2018 https://yadi.sk/a/V7n7Vjg73YKhgv</desc>
</wpt>
<wpt lat="-22.274571" lon="-44.4668">
  <name>Local Trip, Rio de Janeiro, Brazil</name>
  <extensions>
    <color>#3f51b5</color>
  </extensions>
  <desc>2013 https://yadi.sk/a/A43mDcMVqsuga</desc>
</wpt>
<wpt lat="43.111747" lon="-2.5250209">
  <name>Iguria [private], Basque Country, Spain</name>
  <extensions>
    <color>#3f51b5</color>
  </extensions>
  <desc>2013 https://yadi.sk/a/qxbbxV9Tqsipp</desc>
</wpt>
<wpt lat="49.050726" lon="9.5183002">
  <name>Grosserlach, Germany</name>
  <extensions>
    <color>#3f51b5</color>
  </extensions>
  <desc>2013 https://yadi.sk/a/0H69XHt6qstoz</desc>
</wpt>
<wpt lat="41.680001" lon="2.3840165">
  <name>El SoT Vilamajor, Barcelona, Spain</name>
  <extensions>
    <color>#3f51b5</color>
  </extensions>
  <desc>2015 https://yadi.sk/a/6QzS2cLrqtT5A
From Barcelona you need to take a Ridalies train to Sant Celoni from Sants Estació or Passeig de Gràcia, destination station is Llinars del Vallès.</desc>
</wpt>
<wpt lat="50.47455" lon="30.427654">
  <name>Dubki, Kiev, Ukraine</name>
  <extensions>
    <color>#3f51b5</color>
  </extensions>
  <desc>2012 https://yadi.sk/a/54AFYsLeqsa3K
2013 https://yadi.sk/a/NS_mjvA5qsjRj</desc>
</wpt>
<wpt lat="46.234817" lon="14.32805">
  <name>Dirt Dessert, Kranj, Slovenia</name>
  <extensions>
    <color>#3f51b5</color>
  </extensions>
  <desc>2018 https://yadi.sk/a/FuG4uHrP3YpLCQ</desc>
</wpt>
<wpt lat="49.4167" lon="2.7840217">
  <name>Compiegne, France</name>
  <extensions>
    <color>#3f51b5</color>
  </extensions>
  <desc>2011 https://yadi.sk/a/guxwUXXDqsHAF
2013 https://yadi.sk/a/y-hqJ2amqssj9
2017 https://yadi.sk/a/Ovca1rqk3LkptM</desc>
</wpt>
<wpt lat="-30.32954" lon="-51.35052">
  <name>Cabure [private], Porto Alegre, Brazil</name>
  <extensions>
    <color>#3f51b5</color>
  </extensions>
  <desc>2013 https://yadi.sk/a/iS9uS-7LqtRTL</desc>
</wpt>
<wpt lat="45.179552" lon="19.885194">
  <name>Bukovac, Novi Sad, Serbia</name>
  <extensions>
    <color>#3f51b5</color>
  </extensions>
  <desc>2011 https://yadi.sk/a/oUeZtHMyqsHrs
2012 https://yadi.sk/a/SaZX9OABqsbVB
2013 https://yadi.sk/a/IOg4b8lXqsjvs
2014 https://yadi.sk/a/b6TpXvK3qtSfM
2018 https://yadi.sk/a/j5pk7Dc438JvEQ</desc>
</wpt>
<wpt lat="47.893574" lon="-3.4086022">
  <name>Аrzano, Bretagne, France</name>
  <extensions>
    <color>#3f51b5</color>
  </extensions>
  <desc>2013 https://yadi.sk/a/Vhs2Nw1UqstAH</desc>
</wpt>
</gpx>