<?xml version="1.0" encoding="UTF-8"?>
<kml xmlns="http://earth.google.com/kml/2.2">
<Document>
  <Style id="placemark-blue">
    <IconStyle>
      <Icon>
        <href>http://maps.me/placemarks/placemark-blue.png</href>
      </Icon>
    </IconStyle>
  </Style>
  <Style id="placemark-brown">
    <IconStyle>
      <Icon>
        <href>http://maps.me/placemarks/placemark-brown.png</href>
      </Icon>
    </IconStyle>
  </Style>
  <Style id="placemark-green">
    <IconStyle>
      <Icon>
        <href>http://maps.me/placemarks/placemark-green.png</href>
      </Icon>
    </IconStyle>
  </Style>
  <Style id="placemark-orange">
    <IconStyle>
      <Icon>
        <href>http://maps.me/placemarks/placemark-orange.png</href>
      </Icon>
    </IconStyle>
  </Style>
  <Style id="placemark-pink">
    <IconStyle>
      <Icon>
        <href>http://maps.me/placemarks/placemark-pink.png</href>
      </Icon>
    </IconStyle>
  </Style>
  <Style id="placemark-purple">
    <IconStyle>
      <Icon>
        <href>http://maps.me/placemarks/placemark-purple.png</href>
      </Icon>
    </IconStyle>
  </Style>
  <Style id="placemark-red">
    <IconStyle>
      <Icon>
        <href>http://maps.me/placemarks/placemark-red.png</href>
      </Icon>
    </IconStyle>
  </Style>
  <Style id="placemark-yellow">
    <IconStyle>
      <Icon>
        <href>http://maps.me/placemarks/placemark-yellow.png</href>
      </Icon>
    </IconStyle>
  </Style>
  <name>Paris</name>
  <visibility>0</visibility>
  <Placemark>
    <name>Eiffel Tower</name>
    <TimeStamp><when>2017-03-16T05:32:12Z</when></TimeStamp>
    <styleUrl>#placemark-red</styleUrl>
    <Point><coordinates>2.2945024,48.858261</coordinates></Point>
    <ExtendedData xmlns:mwm="https://maps.me">
      <mwm:scale>17</mwm:scale>
    </ExtendedData>
  </Placemark>
  <Placemark>
    <name>Arc de Triomphe de l'Étoile</name>
    <TimeStamp><when>2017-03-16T09:16:58Z</when></TimeStamp>
    <styleUrl>#placemark-red</styleUrl>
    <Point><coordinates>2.2950255,48.873784</coordinates></Point>
    <ExtendedData xmlns:mwm="https://maps.me">
      <mwm:scale>17</mwm:scale>
    </ExtendedData>
  </Placemark>
  <Placemark>
    <name>Cathédrale Notre-Dame de Paris</name>
    <TimeStamp><when>2017-07-16T19:07:51Z</when></TimeStamp>
    <styleUrl>#placemark-red</styleUrl>
    <Point><coordinates>2.3498713,48.852938</coordinates></Point>
    <ExtendedData xmlns:mwm="https://maps.me">
      <mwm:scale>17</mwm:scale>
    </ExtendedData>
  </Placemark>
  <Placemark>
    <name>Centre Pompidou</name>
    <TimeStamp><when>2015-05-11T08:32:43Z</when></TimeStamp>
    <styleUrl>#placemark-red</styleUrl>
    <Point><coordinates>2.3524274,48.860512</coordinates></Point>
    <ExtendedData xmlns:mwm="https://maps.me">
      <mwm:scale>17</mwm:scale>
    </ExtendedData>
  </Placemark>
  <Placemark>
    <name>Palais Royal</name>
    <TimeStamp><when>2015-05-12T07:39:02Z</when></TimeStamp>
    <styleUrl>#placemark-red</styleUrl>
    <Point><coordinates>2.3369537,48.86331</coordinates></Point>
    <ExtendedData xmlns:mwm="https://maps.me">
      <mwm:scale>17</mwm:scale>
    </ExtendedData>
  </Placemark>
  <Placemark>
    <name>Moulin Rouge</name>
    <TimeStamp><when>2017-03-16T05:39:42Z</when></TimeStamp>
    <styleUrl>#placemark-red</styleUrl>
    <Point><coordinates>2.3324074,48.884079</coordinates></Point>
    <ExtendedData xmlns:mwm="https://maps.me">
      <mwm:scale>17</mwm:scale>
    </ExtendedData>
  </Placemark>
  <Placemark>
    <name>Basilique du Sacré-Cœur</name>
    <TimeStamp><when>2017-07-16T16:42:33Z</when></TimeStamp>
    <styleUrl>#placemark-red</styleUrl>
    <Point><coordinates>2.3430263,48.886796</coordinates></Point>
    <ExtendedData xmlns:mwm="https://maps.me">
      <mwm:scale>17</mwm:scale>
    </ExtendedData>
  </Placemark>
  <Placemark>
    <name>Fondation Louis Vuitton</name>
    <TimeStamp><when>2017-03-16T05:33:39Z</when></TimeStamp>
    <styleUrl>#placemark-red</styleUrl>
    <Point><coordinates>2.2633258,48.876655</coordinates></Point>
    <ExtendedData xmlns:mwm="https://maps.me">
      <mwm:scale>17</mwm:scale>
    </ExtendedData>
  </Placemark>
  <Placemark>
    <name>Cour du Commerce</name>
    <TimeStamp><when>2017-03-16T05:29:43Z</when></TimeStamp>
    <styleUrl>#placemark-red</styleUrl>
    <Point><coordinates>2.3391424,48.853083</coordinates></Point>
    <ExtendedData xmlns:mwm="https://maps.me">
      <mwm:scale>17</mwm:scale>
    </ExtendedData>
  </Placemark>
  <Placemark>
    <name>Musée D’orsay</name>
    <TimeStamp><when>2015-05-11T13:42:20Z</when></TimeStamp>
    <styleUrl>#placemark-red</styleUrl>
    <Point><coordinates>2.3265253,48.859919</coordinates></Point>
    <ExtendedData xmlns:mwm="https://maps.me">
      <mwm:scale>17</mwm:scale>
    </ExtendedData>
  </Placemark>
  <Placemark>
    <name>Versailles</name>
    <TimeStamp><when>2017-03-16T06:38:19Z</when></TimeStamp>
    <styleUrl>#placemark-red</styleUrl>
    <Point><coordinates>2.124335,48.80372</coordinates></Point>
    <ExtendedData xmlns:mwm="https://maps.me">
      <mwm:scale>17</mwm:scale>
    </ExtendedData>
  </Placemark>
  <Placemark>
    <name>Saint-Germain-en-Laye</name>
    <TimeStamp><when>2017-03-16T06:39:33Z</when></TimeStamp>
    <styleUrl>#placemark-red</styleUrl>
    <Point><coordinates>2.0960592,48.898006</coordinates></Point>
    <ExtendedData xmlns:mwm="https://maps.me">
      <mwm:scale>17</mwm:scale>
    </ExtendedData>
  </Placemark>
  <Placemark>
    <name>Château de Vincennes</name>
    <description>Free entrance till 16:30.</description>
    <TimeStamp><when>2015-03-08T08:57:36Z</when></TimeStamp>
    <styleUrl>#placemark-red</styleUrl>
    <Point><coordinates>2.4357341,48.842514</coordinates></Point>
    <ExtendedData xmlns:mwm="https://maps.me">
      <mwm:scale>17</mwm:scale>
    </ExtendedData>
  </Placemark>
  <Placemark>
    <name>Square du Vert Galant</name>
    <description>At this location, Jacques de Molay, last Grand Master of the Knights Templar, was burned on 18 March 1314.</description>
    <TimeStamp><when>2017-05-09T12:38:13Z</when></TimeStamp>
    <styleUrl>#placemark-green</styleUrl>
    <Point><coordinates>2.3402073,48.857404</coordinates></Point>
    <ExtendedData xmlns:mwm="https://maps.me">
      <mwm:scale>17</mwm:scale>
    </ExtendedData>
  </Placemark>
  <Placemark>
    <name>Parc de la Villette</name>
    <TimeStamp><when>2017-03-16T06:36:20Z</when></TimeStamp>
    <styleUrl>#placemark-green</styleUrl>
    <Point><coordinates>2.3891616,48.894278</coordinates></Point>
    <ExtendedData xmlns:mwm="https://maps.me">
      <mwm:scale>17</mwm:scale>
    </ExtendedData>
  </Placemark>
  <Placemark>
    <name>Jardin des Plantes</name>
    <TimeStamp><when>2015-05-16T09:03:11Z</when></TimeStamp>
    <styleUrl>#placemark-green</styleUrl>
    <Point><coordinates>2.3559223,48.843137</coordinates></Point>
    <ExtendedData xmlns:mwm="https://maps.me">
      <mwm:scale>17</mwm:scale>
    </ExtendedData>
  </Placemark>
  <Placemark>
    <name>Express De Lyon</name>
    <description>Bar mix of tourists and locals; in the morning works as a cafe; has main varieties of Belgian beers; pints are around 5–6€.</description>
    <TimeStamp><when>2015-04-03T20:48:22Z</when></TimeStamp>
    <styleUrl>#placemark-brown</styleUrl>
    <Point><coordinates>2.3720665,48.845954</coordinates></Point>
    <ExtendedData xmlns:mwm="https://maps.me">
      <mwm:scale>17</mwm:scale>
    </ExtendedData>
  </Placemark>
  <Placemark>
    <name>La Cave à Bulles</name>
    <description>French craft beer small bottle shop: Tuesday to Saturday from 10 to 14 and from 16 to 20.</description>
    <TimeStamp><when>2015-04-03T20:57:39Z</when></TimeStamp>
    <styleUrl>#placemark-brown</styleUrl>
    <Point><coordinates>2.350464,48.861032</coordinates></Point>
    <ExtendedData xmlns:mwm="https://maps.me">
      <mwm:scale>17</mwm:scale>
    </ExtendedData>
  </Placemark>
  <Placemark>
    <name>Brasserie de la Goutte d’Or</name>
    <description>First independent brewery and shop. Famous sort: Château Rouge – spicy amber ale, 3,5€ per 0,33 bottle.</description>
    <TimeStamp><when>2017-03-16T05:41:38Z</when></TimeStamp>
    <styleUrl>#placemark-brown</styleUrl>
    <Point><coordinates>2.3524006,48.885121</coordinates></Point>
    <ExtendedData xmlns:mwm="https://maps.me">
      <mwm:scale>17</mwm:scale>
    </ExtendedData>
  </Placemark>
  <Placemark>
    <name>Le Supercoin</name>
    <description>Away from tourists, hidden under «Le Mont Blanc», only 3 sorts on tap, have strong beverages on bar, happy hour: 17-20.</description>
    <TimeStamp><when>2017-03-16T05:40:52Z</when></TimeStamp>
    <styleUrl>#placemark-brown</styleUrl>
    <Point><coordinates>2.3469503,48.892252</coordinates></Point>
    <ExtendedData xmlns:mwm="https://maps.me">
      <mwm:scale>17</mwm:scale>
    </ExtendedData>
  </Placemark>
  <Placemark>
    <name>Les Trois 8</name>
    <description>Small bar located in trendy Belleville, 8 craft beers on tap from local breweries.</description>
    <TimeStamp><when>2015-04-03T20:20:35Z</when></TimeStamp>
    <styleUrl>#placemark-brown</styleUrl>
    <Point><coordinates>2.3854937,48.866681</coordinates></Point>
    <ExtendedData xmlns:mwm="https://maps.me">
      <mwm:scale>17</mwm:scale>
    </ExtendedData>
  </Placemark>
  <Placemark>
    <name>La Fine Mousse</name>
    <description>Cozy bar with the very best selection of craft beers on tap and one of the most expensive.</description>
    <TimeStamp><when>2017-03-16T06:45:33Z</when></TimeStamp>
    <styleUrl>#placemark-brown</styleUrl>
    <Point><coordinates>2.3817815,48.864852</coordinates></Point>
    <ExtendedData xmlns:mwm="https://maps.me">
      <mwm:scale>17</mwm:scale>
    </ExtendedData>
  </Placemark>
  <Placemark>
    <name>People Drugstore</name>
    <description>Open from noon to midnight, small choose craft ot Belgina beers 3€ per 0,33 bottle, biodynamic vines.</description>
    <TimeStamp><when>2015-04-03T21:00:20Z</when></TimeStamp>
    <styleUrl>#placemark-purple</styleUrl>
    <Point><coordinates>2.3397674,48.882947</coordinates></Point>
    <ExtendedData xmlns:mwm="https://maps.me">
      <mwm:scale>17</mwm:scale>
    </ExtendedData>
  </Placemark>
  <Placemark>
    <name>Le Vieux Chêne</name>
    <description>Belgian beers, 5,50€ per pint on happy hour: 16-20.</description>
    <TimeStamp><when>2015-05-16T16:07:02Z</when></TimeStamp>
    <styleUrl>#placemark-purple</styleUrl>
    <Point><coordinates>2.3498471,48.842339</coordinates></Point>
    <ExtendedData xmlns:mwm="https://maps.me">
      <mwm:scale>17</mwm:scale>
    </ExtendedData>
  </Placemark>
  <Placemark>
    <name>Au Petit Grec</name>
    <description>Crêpe oeu jambon fromage – 5€.</description>
    <TimeStamp><when>2015-05-16T17:15:46Z</when></TimeStamp>
    <styleUrl>#placemark-orange</styleUrl>
    <Point><coordinates>2.3495923,48.842797</coordinates></Point>
    <ExtendedData xmlns:mwm="https://maps.me">
      <mwm:scale>17</mwm:scale>
    </ExtendedData>
  </Placemark>
  <Placemark>
    <name>Gare du Nord</name>
    <TimeStamp><when>2017-05-13T09:05:03Z</when></TimeStamp>
    <styleUrl>#placemark-pink</styleUrl>
    <Point><coordinates>2.3547609,48.880511</coordinates></Point>
    <ExtendedData xmlns:mwm="https://maps.me">
      <mwm:scale>17</mwm:scale>
    </ExtendedData>
  </Placemark>
</Document>
</kml>
