<?xml version="1.0" encoding="UTF-8"?>
<kml xmlns="http://earth.google.com/kml/2.2">
<Document>
  <Style id="placemark-red">
    <IconStyle>
      <Icon>
        <href>http://maps.me/placemarks/placemark-red.png</href>
      </Icon>
    </IconStyle>
  </Style>
  <Style id="placemark-blue">
    <IconStyle>
      <Icon>
        <href>http://maps.me/placemarks/placemark-blue.png</href>
      </Icon>
    </IconStyle>
  </Style>
  <Style id="placemark-purple">
    <IconStyle>
      <Icon>
        <href>http://maps.me/placemarks/placemark-purple.png</href>
      </Icon>
    </IconStyle>
  </Style>
  <Style id="placemark-yellow">
    <IconStyle>
      <Icon>
        <href>http://maps.me/placemarks/placemark-yellow.png</href>
      </Icon>
    </IconStyle>
  </Style>
  <Style id="placemark-pink">
    <IconStyle>
      <Icon>
        <href>http://maps.me/placemarks/placemark-pink.png</href>
      </Icon>
    </IconStyle>
  </Style>
  <Style id="placemark-brown">
    <IconStyle>
      <Icon>
        <href>http://maps.me/placemarks/placemark-brown.png</href>
      </Icon>
    </IconStyle>
  </Style>
  <Style id="placemark-green">
    <IconStyle>
      <Icon>
        <href>http://maps.me/placemarks/placemark-green.png</href>
      </Icon>
    </IconStyle>
  </Style>
  <Style id="placemark-orange">
    <IconStyle>
      <Icon>
        <href>http://maps.me/placemarks/placemark-orange.png</href>
      </Icon>
    </IconStyle>
  </Style>
  <name>Sochi</name>
  <visibility>0</visibility>
  <Placemark>
    <name>Airport</name>
    <description>Bus 105 or 135.</description>
    <TimeStamp><when>2019-09-21T10:53:02Z</when></TimeStamp>
    <styleUrl>#placemark-pink</styleUrl>
    <Point><coordinates>39.941329,43.448921</coordinates></Point>
    <ExtendedData xmlns:mwm="https://maps.me">
      <mwm:scale>17</mwm:scale>
    </ExtendedData>
  </Placemark>
    <Placemark>
    <name>Gorki Gorod</name>
    <TimeStamp><when>2019-09-21T11:58:42Z</when></TimeStamp>
    <styleUrl>#placemark-pink</styleUrl>
    <Point><coordinates>40.266914,43.683212</coordinates></Point>
    <ExtendedData xmlns:mwm="https://maps.me">
      <mwm:scale>17</mwm:scale>
    </ExtendedData>
  </Placemark>
  <Placemark>
    <name>Rosa Khutor</name>
    <TimeStamp><when>2019-09-21T13:00:24Z</when></TimeStamp>
    <styleUrl>#placemark-pink</styleUrl>
    <Point><coordinates>40.297494,43.671171</coordinates></Point>
    <ExtendedData xmlns:mwm="https://maps.me">
      <mwm:scale>17</mwm:scale>
    </ExtendedData>
  </Placemark>
  <Placemark>
    <name>Olympic Village Mountian Cluster</name>
    <TimeStamp><when>2019-09-21T14:34:49Z</when></TimeStamp>
    <styleUrl>#placemark-pink</styleUrl>
    <Point><coordinates>40.318495,43.662056</coordinates></Point>
    <ExtendedData xmlns:mwm="https://maps.me">
      <mwm:scale>17</mwm:scale>
    </ExtendedData>
  </Placemark>
  <Placemark>
    <name>Roza Plato - Zapovedny les</name>
    <TimeStamp><when>2019-09-23T10:18:24Z</when></TimeStamp>
    <styleUrl>#placemark-pink</styleUrl>
    <Point><coordinates>40.319214,43.658142</coordinates></Point>
    <ExtendedData xmlns:mwm="https://maps.me">
      <mwm:scale>17</mwm:scale>
    </ExtendedData>
  </Placemark>
  <Placemark>
    <name>Roza Peak</name>
    <TimeStamp><when>2019-09-09T05:14:22Z</when></TimeStamp>
    <styleUrl>#placemark-red</styleUrl>
    <Point><coordinates>40.310063,43.625286</coordinates></Point>
    <ExtendedData xmlns:mwm="https://maps.me">
      <mwm:scale>17</mwm:scale>
    </ExtendedData>
  </Placemark>
  <Placemark>
    <name>Half-pipe</name>
    <TimeStamp><when>2019-09-22T11:40:10Z</when></TimeStamp>
    <styleUrl>#placemark-red</styleUrl>
    <Point><coordinates>40.323331,43.649793</coordinates></Point>
    <ExtendedData xmlns:mwm="https://maps.me">
      <mwm:scale>17</mwm:scale>
    </ExtendedData>
  </Placemark>
  <Placemark>
    <name>Riders Lodge</name>
    <TimeStamp><when>2019-09-09T05:13:04Z</when></TimeStamp>
    <styleUrl>#placemark-blue</styleUrl>
    <Point><coordinates>40.320191,43.660839</coordinates></Point>
    <ExtendedData xmlns:mwm="https://maps.me">
      <mwm:scale>17</mwm:scale>
    </ExtendedData>
  </Placemark>
  <Placemark>
    <name>BoogelWoogel</name>
    <TimeStamp><when>2019-09-17T18:21:05Z</when></TimeStamp>
    <styleUrl>#placemark-purple</styleUrl>
    <Point><coordinates>40.317071,43.662659</coordinates></Point>
    <ExtendedData xmlns:mwm="https://maps.me">
      <mwm:scale>17</mwm:scale>
    </ExtendedData>
  </Placemark>
  <Placemark>
    <name>Stolovaya 28</name>
    <description>The cheapest place on the mountain, 20% discount after 20:00.</description>
    <TimeStamp><when>2019-09-17T18:05:35Z</when></TimeStamp>
    <styleUrl>#placemark-orange</styleUrl>
    <Point><coordinates>40.315199,43.663703</coordinates></Point>
    <ExtendedData xmlns:mwm="https://maps.me">
      <mwm:scale>17</mwm:scale>
    </ExtendedData>
  </Placemark>
</Document>
</kml>
