<?xml version="1.0" encoding="UTF-8" standalone="yes"?>
<gpx version="1.1" creator="OsmAnd" xmlns="http://www.topografix.com/GPX/1/1" xmlns:xsi="http://www.w3.org/2001/XMLSchema-instance" xsi:schemaLocation="http://www.topografix.com/GPX/1/1 http://www.topografix.com/GPX/1/1/gpx.xsd">
<wpt lat="59.933185" lon="30.343365">
  <name>70. Аничков мост</name>
  <extensions>
    <color>#607d8b</color>
  </extensions>
  <desc>В «Бесах» один мрачный товарищ «в летнем пальто в глубокую осень, встретил вдруг случайно у Аничкова моста своего бывшего protégé „Лембку”».</desc>
</wpt>
<wpt lat="59.906952" lon="30.307373">
  <name>69. Бывший Варшавский вокзал</name>
  <extensions>
    <color>#607d8b</color>
  </extensions>
  <desc>Князь Мышкин вместе с попутчиками приехал из Европы в Петербург: «В конце ноября, в оттепель, часов в девять утра, поезд Петербургско-Варшавской железной дороги на всех парах подходил к Петербургу.»</desc>
</wpt>
<wpt lat="59.919634" lon="30.329462">
  <name>68. Витебский вокзал</name>
  <extensions>
    <color>#607d8b</color>
  </extensions>
  <desc>Достоевский не упоминает названия вокзала, но герои «Идиота» могли ездить на поезде в Павловск только отсюда. Кстати, это самый первый вокзал в России (1837).</desc>
</wpt>
<wpt lat="59.944578" lon="30.335094">
  <name>67. Летний сад</name>
  <extensions>
    <color>#607d8b</color>
  </extensions>
  <desc>На скамье под деревом (липой) сидел князь Мышки: «Было около семи часов. Сад был пуст».</desc>
</wpt>
<wpt lat="59.903038" lon="30.263509">
  <name>66. Екатерингоф</name>
  <extensions>
    <color>#607d8b</color>
  </extensions>
  <desc>Парфён Рогожин и Настасья Филипповна поехали кутить в ночь её именин.</desc>
</wpt>
<wpt lat="59.929967" lon="30.320506">
  <name>65. Дом Рогожина</name>
  <extensions>
    <color>#607d8b</color>
  </extensions>
  <desc>«Дом этот был большой, мрачный, в три этажа, без всякой архитектуры, цвету грязно-зеленого».</desc>
</wpt>
<wpt lat="59.94343" lon="30.350931">
  <name>64. Дом генерала Епанчина</name>
  <extensions>
    <color>#607d8b</color>
  </extensions>
  <desc>Генерал «жил в собственном доме, несколько в стороне от Литейной, к Спасу Преображения». Литературные краеведы указывают на дом статского советника Иван Дирина, который «занимал квартиру в одиннадцать комнат на втором этаже, остальные помещения сдавал внаем. Как и генерал Епанчин, генерал Дирин владел еще одним домом в центре города, но предпочитал жить у Спаса Преображения, что было и респектабельно и весьма практично». Однако домом Епанчина вполне мог быть дом надворного советника Александра Лисицина, расположенный прямо на противоположной стороне Преображенской площади: ул. Рылеева, 1.</desc>
</wpt>
<wpt lat="59.925695" lon="30.342212">
  <name>63. Пять углов</name>
  <extensions>
    <color>#607d8b</color>
  </extensions>
  <desc>«Близ Владимирской, у Пяти Углов» жила Настасья Филипповна Барашкова из «Идиота». Её квартира могла быть в доме купца Пшеницына, где в начале 1840-x гг. находился известный в Петербурге салон Авдотьи Панаевой. 
В том-же районе по словам Разумихина была первая квартира Раскольникова: «Ну, а прежнюю квартиру, помню только, что у Пяти Углов, Харламова дом… а ведь вышло потом, что он вовсе и не Харламов дом, а Буха».</desc>
</wpt>
<wpt lat="59.928865" lon="30.308397">
  <name>62. Дом Бакалеева</name>
  <extensions>
    <color>#607d8b</color>
  </extensions>
  <desc>Бывшая «Варваринская гостиница», где Лужин поселил мать и сестру Раскольникова: «Это на Вознесенском,… там два этажа под нумерами; купец Юшин содержит… Скверность ужаснейшая: грязь, вонь, да и подозрительное место; штуки случались; да и черт знает кто не живет!»
Здесь же располагалась кондитерская Миллера, где Иван Петрович встретил старика Смита: «Посетители этой кондитерской большею частию немцы. Они собираются сюда со всего Вознесенского проспекта – все хозяева различных заведений: слесаря, булочники, красильщики, шляпные мастера, седельники – все люди патриархальные в немецком смысле слова. У Миллера вообще наблюдалась патриархальность.»</desc>
</wpt>
<wpt lat="59.926467" lon="30.308208">
  <name>61. Вознесенский мост</name>
  <extensions>
    <color>#607d8b</color>
  </extensions>
  <desc>«Раскольников прошел прямо на Вознесенский мост, стал на средине, у перил, облокотился на них обоими локтями и принялся глядеть вдоль» и видел, как женщина попыталась утопится. Здесь же сошла с ума Катерина Ивановна.
Иван Петрович из «Униженных и оскорбленных» заметил как Нелли просила милостыню: «Только что я это воскликнул, как вдруг увидел Нелли, в нескольких шагах от меня, на В-м мосту.»</desc>
</wpt>
<wpt lat="59.922983" lon="30.313115">
  <name>60. Юсуповский сад</name>
  <extensions>
    <color>#607d8b</color>
  </extensions>
  <desc>Раскольников «проходя мимо Юсупова сада, он даже очень было занялся мыслию об устройстве высоких фонтанов».</desc>
</wpt>
<wpt lat="59.925239" lon="30.315901">
  <name>59. Бордель Дом-де-Роберти</name>
  <extensions>
    <color>#607d8b</color>
  </extensions>
  <desc>Раскольников, идя с Сенной площади к Вознесенскому проспекту, сократил путь через переулок (бывший Таиров): «Он и прежде проходил часто этим коротеньким переулком, делающим колено и ведущим с площади в Садовую», где к нему привязались проститутки, одной из которых он дал пятнадцать копеек.</desc>
</wpt>
<wpt lat="59.921846" lon="30.305794">
  <name>58. Полицейская контора**</name>
  <extensions>
    <color>#607d8b</color>
  </extensions>
  <desc>По одной из версий в здании бывшей Спасской полицейской части (район, где убил Алену Ивановну) Раскольников беседовал с Порфирием Петровичем: «Она только что переехала на новую квартиру, в новый дом, в четвертый этаж». По другой версии это могло быть в здании бывшей Казанской полицейской части (район, где жил и не платил за квартиру; набережная канала Грибоедова, 99).</desc>
</wpt>
<wpt lat="59.927015" lon="30.300737">
  <name>57. Полицейская контора*</name>
  <extensions>
    <color>#607d8b</color>
  </extensions>
  <desc>По одной из версий в здании бывшей Казанской полицейской части (район, где жил и не платил за квартиру) Раскольников беседовал с Порфирием Петровичем, что соответствует указанному Достоевским расстоянию: «Контора была от него с четверть версты». По другой версии это могло быть в здании бывшей Спасской полицейской части (район, где убил Алену Ивановну; Садовая улица, 58).</desc>
</wpt>
<wpt lat="59.930826" lon="30.307901">
  <name>56. Тайник Раскольникова</name>
  <extensions>
    <color>#607d8b</color>
  </extensions>
  <desc>«Выходя с Вознесенского проспекта на площадь, он вдруг увидел налево вход во двор», где под камень спрятал украденные у убитой старухи вещи и кошелек. Двор того времени не сохранился, дом на этом месте был перестроен в 1950-е.</desc>
</wpt>
<wpt lat="59.927711" lon="30.316414">
  <name>55. Переулок Гривцова</name>
  <extensions>
    <color>#607d8b</color>
  </extensions>
  <desc>Тут был подслушан разговор с Лизаветой: «Раскольников преимущественно любил эти места, равно как и все близлежащие переулки, когда выходил без цели на улицу… У самого К-ного переулка, на углу, мещанин и баба поднимались домой, но замешкались, разговаривая с подошедшею знакомой». Переулок назывался Конным с 1772 года, до того переулок был Малой Сарской улицей, а в 1952 году получил современное название.</desc>
</wpt>
<wpt lat="59.924817" lon="30.303112">
  <name>54. Дом старухи процентщицы</name>
  <extensions>
    <color>#607d8b</color>
  </extensions>
  <desc>«Ровно семьсот тридцать» шагов от ворот дома Раскольникова до дома старухи процентщицы Алёны Ивановны. Это был доходный дом Вальха в котором в 1816–1818 жил Грибоедов.</desc>
</wpt>
<wpt lat="59.926354" lon="30.310702">
  <name>53. Дом Сони Мармеладовой</name>
  <extensions>
    <color>#607d8b</color>
  </extensions>
  <desc>«Дом был трехэтажный, старый, зеленого цвета». На третьем этаже (тогда последнем) Соня снимала комнату, окна которой выходили на Екатерининский канал.</desc>
</wpt>
<wpt lat="59.927691" lon="30.310662">
  <name>52. Дом Раскольникова</name>
  <extensions>
    <color>#607d8b</color>
  </extensions>
  <desc>В доме Иохима на четвертом этаже располагалась квартира, в которой Родион снимал комнату: «Это была крошечная клетушка, шагов в шесть длиной, имевшая самый жалкий вид с своими желтенькими, пыльными и всюду отставшими от стены обоями, и до того низкая,… что вот-вот стукнешься головой о потолок».</desc>
</wpt>
<wpt lat="59.924683" lon="30.318343">
  <name>51. Вяземская лавра</name>
  <extensions>
    <color>#607d8b</color>
  </extensions>
  <desc>В XIX веке это была группа домов между Сенной площадью и Фонтанкой, где располагались дешевые трактиры и ночлежки. Свидригайлов, рассказывая о крайней степени своего падения, упоминает: «в доме Вяземского на Сенной в старину ночевывал».</desc>
</wpt>
<wpt lat="59.922214" lon="30.307361">
  <name>50. Хрустальный дворец</name>
  <extensions>
    <color>#607d8b</color>
  </extensions>
  <desc>Трактир, где Раскольников выслушал исповедь Свидригайлова. В черновиках к роману Достоевский пишет: «На углу Садовой и Вознесенского я набрел на одну гостиницу, и так как я знал, что в ней есть газеты, то и зашел туда, чтобы прочесть в газете, под рубрикой ежедневных событий, о том, что там написано об убийстве старухи». В этом месте находилась гостиница «Пале-де-Кристаль».</desc>
</wpt>
<wpt lat="59.926964" lon="30.318633">
  <name>49. Сенная площадь</name>
  <extensions>
    <color>#607d8b</color>
  </extensions>
  <desc>Вокруг Сенной происходило множество событий из «Преступления и наказания». Например, в конце романа Раскольников «стал на колени среди площади, поклонился до земли и поцеловал эту грязную землю, с наслаждением и счастием».</desc>
</wpt>
<wpt lat="59.933194" lon="30.298095">
  <name>48. Конногвардейский бульвар</name>
  <extensions>
    <color>#607d8b</color>
  </extensions>
  <desc>Конногвардейский бульвар почему-то не рассматривается, как примечательное место, хотя Достоевский четко указывает на него: «Ему хотелось сесть, и он искал скамейку; проходил же он тогда по К-му бульвару», где Раскольников повстречал пьяную девушку.</desc>
</wpt>
<wpt lat="59.925821" lon="30.313625">
  <name>47. Кокушкин мост</name>
  <extensions>
    <color>#607d8b</color>
  </extensions>
  <desc>«В начале июля,… один молодой человек вышел из своей каморки, которую нанимал от жильцов в Столярном переулке, на улицу и медленно,… отправился к Кокушкину мосту».</desc>
</wpt>
<wpt lat="59.933112" lon="30.331046">
  <name>46. Гостиный двор</name>
  <extensions>
    <color>#607d8b</color>
  </extensions>
  <desc>Герой «Записок из подполья» ищет здесь бобровый воротник для пальто: «Надо было переменить воротник во что бы ни стало и завести бобрик, вроде как у офицеров. Для этого я стал ходить по Гостиному двору и после нескольких попыток нацелился на один дешёвый немецкий бобрик.»</desc>
</wpt>
<wpt lat="59.935216" lon="30.316771">
  <name>45. Ресторан Бореля</name>
  <extensions>
    <color>#607d8b</color>
  </extensions>
  <desc>Иван Петрович и князь Валковский поехали ужинать:
– Дело в шляпе. В Большую Морскую, к Б.
– В ресторан? – спросил я с некоторым замешательством.
– Да, а что ж?</desc>
</wpt>
<wpt lat="59.924568" lon="30.29574">
  <name>44. Торговый мост</name>
  <extensions>
    <color>#607d8b</color>
  </extensions>
  <desc>Иван Петрович и князь Валковский поехали к графине, которая жила рядом с этим местом: «Ехать было недолго, к Торговому мосту.»</desc>
</wpt>
<wpt lat="59.923607" lon="30.3204">
  <name>43. Дом Наташи Ихменевой</name>
  <extensions>
    <color>#607d8b</color>
  </extensions>
  <desc>Наташа Ихменева предположительно могла тут жить: «Она жила тогда на Фонтанке, у Семеновского моста, в грязном „капитальном” доме купца Колотушкина, в четвертом этаже.»</desc>
</wpt>
<wpt lat="59.934418" lon="30.278528">
  <name>42. 13-я линия Васильевского острова</name>
  <extensions>
    <color>#607d8b</color>
  </extensions>
  <desc>Жили Ихменьевы (Николай Сергеевич и Анна Андреевна) из «Униженных и оскорбленных»: «На Васильевском острове он выпускает меня из кареты, и я бегу к нашим. Вот и Тринадцатая линия, вот и их домик.»</desc>
</wpt>
<wpt lat="59.937804" lon="30.284801">
  <name>41. 6-я линия Васильевского острова</name>
  <extensions>
    <color>#607d8b</color>
  </extensions>
  <desc>Находился дом мещанки Бубновой, где жила Нелли после смерти матери: «На Васильевском острове, – хрипел старик, – в Шестой линии…»</desc>
</wpt>
<wpt lat="59.929267" lon="30.305262">
  <name>40. Дом Смита</name>
  <extensions>
    <color>#607d8b</color>
  </extensions>
  <desc>Старик Смит, а впоследствии Иван Петрович, жили здесь: «Квартиру старика отыскали. Он, однакоже, жил не на Васильевском острову, а в двух шагах от того места, где умер, в доме Клугена, под самою кровлею, в пятом этаже, в отдельной квартире.»</desc>
</wpt>
<wpt lat="59.936642" lon="30.355072">
  <name>39. Шестилавочная улица</name>
  <extensions>
    <color>#607d8b</color>
  </extensions>
  <desc>На Шестилавочной улице (ныне улице Маяковского) жил титулярный советник господин Голядкин из «Двойника» и Филипп Филиппыч Маслобоев из «Униженных и оскорбленных».</desc>
</wpt>
<wpt lat="59.927478" lon="30.347719">
  <name>38. Памятник Достоевскому</name>
  <extensions>
    <color>#607d8b</color>
  </extensions>
  <desc>Памятник Достоевскому (11 ноября 1821 – 9 февраля 1881) был установлен 30 мая 1997 г. Каждую первую субботу июля рядом с памятником открываются Дни Достоевского в Санкт-Петербурге.</desc>
</wpt>
<wpt lat="59.922955" lon="30.386581">
  <name>37. Могила Достоевского</name>
  <extensions>
    <color>#607d8b</color>
  </extensions>
  <desc>Похоронен 14 февраля (1 февраля по старому стилю) 1881 на Тихвинском кладбище. В эпитафии на надгробии приведены слова из Евангелия от Иоанна: «Истинно, истинно говорю вам: если пшеничное зерно, пав в землю, не умрет, то останется одно; а если умрет, то принесет много плода».</desc>
</wpt>
<wpt lat="59.927382" lon="30.350661">
  <name>36. Музей Федора Михайловича Достоевского</name>
  <extensions>
    <color>#607d8b</color>
  </extensions>
  <desc>С 11:00 до 18:00 кроме понедельника.</desc>
</wpt>
<wpt lat="59.93598" lon="30.366603">
  <name>35. Дом Струбинского</name>
  <extensions>
    <color>#607d8b</color>
  </extensions>
  <desc>20 сентября 1875 – май 1878. Квартира находилась на третьем этаже с входом со двора. Тут закончил «Подростка», съехал после смерти младшего сына.</desc>
</wpt>
<wpt lat="59.931413" lon="30.362554">
  <name>34. Гостиница Знаменская</name>
  <extensions>
    <color>#607d8b</color>
  </extensions>
  <desc>Останавливался в «Знаменской» гостинице несколько раз: с 5 по 16 февраля 1875, где корректировал первую часть романа «Подросток», затем 12–15 мая 1875 и 6–9 июля 1875, возвращаясь из Эмса. Потом 9–11 августа 1876, где случился эпилептический припадок. И останавливался проездом в ночь с 19 на 20 июля 1879.</desc>
</wpt>
<wpt lat="59.933073" lon="30.349923">
  <name>33. Гостиница Дагмар</name>
  <extensions>
    <color>#607d8b</color>
  </extensions>
  <desc>5–7 июня 1875. Останавливался один раз по дороге из Старой Руссы в Бад-Эмс. Отель и комната оказались «сквернейшими».</desc>
</wpt>
<wpt lat="59.927634" lon="30.319254">
  <name>32. Бывшая гауптвахта</name>
  <extensions>
    <color>#607d8b</color>
  </extensions>
  <desc>21–23 марта 1874. Провел двое суток на гауптвахте за нарушение цензурного устава в качестве редактора «Гражданина».</desc>
</wpt>
<wpt lat="59.931013" lon="30.357573">
  <name>31. Журнал «Гражданин»</name>
  <extensions>
    <color>#607d8b</color>
  </extensions>
  <desc>1873 – апрель 1874. Занимал пост редактора и вел еженедельное политическое обозрение, публиковал «Дневник писателя».</desc>
</wpt>
<wpt lat="59.934254" lon="30.362694">
  <name>30. Дом Сливчанского</name>
  <extensions>
    <color>#607d8b</color>
  </extensions>
  <desc>Март 1873 – май 1874. Переехал, чтобы жить поближе к редакции журнала «Гражданин», начал работу над «Подростком». Не нравился хозяин дома и шум на улице.</desc>
</wpt>
<wpt lat="59.915092" lon="30.311606">
  <name>29. Дом Мёбес (дом капитально перестроен и флигель не сохранился)</name>
  <extensions>
    <color>#607d8b</color>
  </extensions>
  <desc>Конец августа 1872 – март 1873. Закончил работу над романом «Бесы», начал редактировать журнал «Гражданин». Квартира была во внутреннем флигеле на втором этаже.</desc>
</wpt>
<wpt lat="59.929519" lon="30.307228">
  <name>28. Максимилиановская лечебница</name>
  <extensions>
    <color>#607d8b</color>
  </extensions>
  <desc>24–26 мая 1872. Вернулся из Старой Руссы из-за перелома руки трехлетней дочки Любы. Прожил с женой двое суток на постоялом дворе при лечебнице (на углу переулка Пирогова и Вознесенского проспекта).</desc>
</wpt>
<wpt lat="59.91591" lon="30.322258">
  <name>27. Дом Архангельской (дом не сохранился)</name>
  <extensions>
    <color>#607d8b</color>
  </extensions>
  <desc>22–23 августа 1871 – 15 мая 1872. Жил здесь до отъезда на лето в Старую Руссу. Здесь же писатель позировал художнику Перову для знаменитого портрета.</desc>
</wpt>
<wpt lat="59.924728" lon="30.310997">
  <name>26. Дом Мицкевича (дом не сохранился)</name>
  <extensions>
    <color>#607d8b</color>
  </extensions>
  <desc>10 июля – 22–23 августа 1871. По возвращению из-за границы занял две меблированные комнаты, где родился сын Федор.</desc>
</wpt>
<wpt lat="59.937018" lon="30.321887">
  <name>25. Гостиница Демут** (дом многократно перестраивался)</name>
  <extensions>
    <color>#607d8b</color>
  </extensions>
  <desc>8–9 июля 1871. Адрес отеля не известен биографам писателя, но, вероятно, Достоевские могли здесь прожить два дня после возвращения из-за границы.</desc>
</wpt>
<wpt lat="59.937643" lon="30.322683">
  <name>24. Волковские номера* (дом не сохранился)</name>
  <extensions>
    <color>#607d8b</color>
  </extensions>
  <desc>8–9 июля 1871. По воспоминаниям Анны Григорьевны Достоевской, после возвращения из-за границы: «остановились в гостинице на Большой Конюшенной, но прожили там всего два дня. Оставаться в ней было неудобно, да и не по средствам». Адрес указан предположительно, т.к. помимо меблированных комнат они могли остановиться в отеле «Демут».</desc>
</wpt>
<wpt lat="59.91647" lon="30.305851">
  <name>23. Троице-Измайловский собор</name>
  <extensions>
    <color>#607d8b</color>
  </extensions>
  <desc>15 февраля 1867. Венчался (со второй женой Анной Григорьевной Сниткиной) в дату освобождения из Омского острога.</desc>
</wpt>
<wpt lat="59.925755" lon="30.307235">
  <name>22. Дом Ширмера</name>
  <extensions>
    <color>#607d8b</color>
  </extensions>
  <desc>21 января – 14 апреля 1867. Снимал пятикомнатную квартиру на втором этаже перед свадьбой со второй женой, после чего уехал за границу.</desc>
</wpt>
<wpt lat="59.927069" lon="30.312774">
  <name>21. Дом Алонкина</name>
  <extensions>
    <color>#607d8b</color>
  </extensions>
  <desc>20 августа 1864 – 20 января 1867. В квартире на втором этаже написал романы «Преступление и наказание» и «Игрок», познакомился с будущей женой Анной Григорьевной Сниткиной.</desc>
</wpt>
<wpt lat="59.926795" lon="30.311756">
  <name>20. Дом Евреинова</name>
  <extensions>
    <color>#607d8b</color>
  </extensions>
  <desc>Апрель 1864. Остановился после смерти первой жены Марии Дмитриевны Исаевой от чахотки.</desc>
</wpt>
<wpt lat="59.9266" lon="30.302025">
  <name>19. Дом Томас</name>
  <extensions>
    <color>#607d8b</color>
  </extensions>
  <desc>Июль 1863 – начало 1864. В это время Достоевский путешествовал по Европе и по этому адресу жил его пасынок Павел Исаев. Писатель останавливался в квартире своего пасынка на время визитов в Петербург в конце 1863 – начале 1864 г.</desc>
</wpt>
<wpt lat="59.927429" lon="30.314607">
  <name>18. Дом Астафьевой</name>
  <extensions>
    <color>#607d8b</color>
  </extensions>
  <desc>Сентябрь 1861 – август 1863. Нанимал квартиру на втором этаже из пяти комнат с кухней, закончил «Записки из Мертвого дома».</desc>
</wpt>
<wpt lat="59.914938" lon="30.31491">
  <name>17. Дом Политина (дом не сохранился)</name>
  <extensions>
    <color>#607d8b</color>
  </extensions>
  <desc>Конец декабря 1859 – конец августа 1861. Возвратился в Петербург после ссылки, работал над произведениями «Записки из Мертвого дома» и «Униженные и оскорбленные».</desc>
</wpt>
<wpt lat="59.948744" lon="30.310822">
  <name>16. Петропавловская крепость</name>
  <extensions>
    <color>#607d8b</color>
  </extensions>
  <desc>23 апреля 1849 – 22 декабря 1849. В Алексеевском равелине Петропавловской крепости написал рассказ «Маленький герой» (тюрьма Алексеевского равелина была разрушена в 1895 году).. После приговора покинул Петербург и выбыл из литературного процесса на 10 лет.</desc>
</wpt>
<wpt lat="59.934361" lon="30.308628">
  <name>15. Дом Шиля</name>
  <extensions>
    <color>#607d8b</color>
  </extensions>
  <desc>Февраль 1847 – 23 апреля 1849. Жил на третьем этаже, написал повести и рассказы «Белые ночи» и «Неточка Незванова». 23 апреля 1849 года был арестован за участие в кружке Петрашевского и препровожден в Третье отделение, а затем в Петропавловскую крепость.</desc>
</wpt>
<wpt lat="59.925807" lon="30.304925">
  <name>14. Большая Подьяческая</name>
  <extensions>
    <color>#607d8b</color>
  </extensions>
  <desc>Январь 1948 – конец мая 1948. Жил с семейством брата Михаила. Потом перебрался с ними на всё лето в Парголово, а по возвращении поселился на старой квартире в доме Шиля.</desc>
</wpt>
<wpt lat="59.93641" lon="30.319062">
  <name>13. Вольф и Беранже</name>
  <extensions>
    <color>#607d8b</color>
  </extensions>
  <desc>В кафе «Вольф и Беранже» собирались петрашевцы и здесь же весной 1846 года случайно познакомился с М.В. Буташевичем-Петрашевским, пропагандировавшим идеи утопического социализма.</desc>
</wpt>
<wpt lat="59.940728" lon="30.290257">
  <name>12. Дом Солошича</name>
  <extensions>
    <color>#607d8b</color>
  </extensions>
  <desc>Ноябрь 1846 – февраль 1847. Снимал несколько комнат совместно с братьями Бекетовыми.</desc>
</wpt>
<wpt lat="59.93362" lon="30.323443">
  <name>11. Дом Кохендорфа</name>
  <extensions>
    <color>#607d8b</color>
  </extensions>
  <desc>6 сентября 1846 – ноябрь 1846. Закончил повесть «Господин Прохарчин». 5 октября 1846 года познакомился с А.И. Герценым.</desc>
</wpt>
<wpt lat="59.928377" lon="30.344142">
  <name>10. Дом Павловых</name>
  <extensions>
    <color>#607d8b</color>
  </extensions>
  <desc>Май 1846. Прожил здесь неполный месяц перед отъездом на лето в Ревель к брату Михаилу.</desc>
</wpt>
<wpt lat="59.927164" lon="30.350692">
  <name>09. Дом Кучиной/Клинкстрема</name>
  <extensions>
    <color>#607d8b</color>
  </extensions>
  <desc>Конец 1845 – конец апреля – начало мая 1846. Жил в трехкомнатной квартире на первом этаже, окна выходили на Гребецкую улицу (это 5-е – 7-е окна справа от арки по улице Достоевского). Написал повесть «Двойник».
5 октября 1878 – 9 февраля 1881. Здание сменило владельца, когда писатель жил в нем во второй раз до самой смерти (28 января по старому стилю). Окна новой квартиры выходили на Кузнечный переулок, сейчас там располагается литературно-мемориальный музей-квартира писателя. Написал свой последний роман «Братья Карамазовы».</desc>
</wpt>
<wpt lat="59.929326" lon="30.351257">
  <name>08. Дом Тулубьева</name>
  <extensions>
    <color>#607d8b</color>
  </extensions>
  <desc>Григорович передал рукопись «Бедных людей» жившему здесь Некрасову. Который, прочитав роман, передал рукопись Белинскому со словами: «Новый Гоголь явился!»</desc>
</wpt>
<wpt lat="59.933269" lon="30.347131">
  <name>07. Ресторан Лерха</name>
  <extensions>
    <color>#607d8b</color>
  </extensions>
  <desc>30 июня 1843 в ресторане Лерха праздновал окончание Главного инженерного училища.</desc>
</wpt>
<wpt lat="59.927237" lon="30.320954">
  <name>06. Церковь Спаса-на-Сенной</name>
  <extensions>
    <color>#607d8b</color>
  </extensions>
  <desc>Cнесенную в советский период церковь посещал Достоевский (сейчас на этом месте часовня Иоанна Нового Сочавского). Возможно, рядом жили герои романа «Бедные люди».</desc>
</wpt>
<wpt lat="59.930449" lon="30.347024">
  <name>05. Дом Пряничникова</name>
  <extensions>
    <color>#607d8b</color>
  </extensions>
  <desc>Февраль 1842 – конец 1845. Снимал квартиру на втором этаже с братом Андреем. Через дорогу (в доме Фредерикса) покупал булки и ячменный кофе. С 1844 по 1845 год соседом Достоевского был Д.В. Григорович, которому писатель читал свой первый роман «Бедные люди», оконченный в конце мая 1845.</desc>
</wpt>
<wpt lat="59.935635" lon="30.342183">
  <name>04. Дом Сеткова (дом сохранился в перестроенном виде)</name>
  <extensions>
    <color>#607d8b</color>
  </extensions>
  <desc>Август 1841 – февраль 1842. 12 августа 1841 года был произведен в полевые инженер-прапорщики с правом жить на частной квартире: небольшой, из двух комнат, одну из которых занимал его товарищ по училищу Адольф Тотлебен.</desc>
</wpt>
<wpt lat="59.940526" lon="30.3372">
  <name>03. Михайловский замок</name>
  <extensions>
    <color>#607d8b</color>
  </extensions>
  <desc>16 января 1838 – август 1841. Учился и проживал в Главном инженерном училище. Его любимым местом была угловая каморка у окна, выходившего на Пантелеймоновский мост.</desc>
</wpt>
<wpt lat="59.927257" lon="30.357518">
  <name>02. Пансион Костомарова (дом Решетникова, дом не сохранился)</name>
  <extensions>
    <color>#607d8b</color>
  </extensions>
  <desc>Май 1837 – 16 января 1838. Готовился к поступлению в Главное инженерное училище.</desc>
</wpt>
<wpt lat="59.919858" lon="30.318162">
  <name>01. Серапинская гостиница</name>
  <extensions>
    <color>#607d8b</color>
  </extensions>
  <desc>Май 1837. При первом приезде в столицу из Москвы пробыл здесь несколько дней с отцом и братом Михаилом.</desc>
</wpt>
</gpx>