<?xml version="1.0" encoding="UTF-8" standalone="yes"?>
<gpx version="1.1" creator="mmkml2gpx 2.0.0" xmlns="http://www.topografix.com/GPX/1/1" xmlns:xsi="http://www.w3.org/2001/XMLSchema-instance" xsi:schemaLocation="http://www.topografix.com/GPX/1/1 http://www.topografix.com/GPX/1/1/gpx.xsd">
<metadata>
  <name>Belgium</name>
</metadata>
<wpt lat="50.017321" lon="4.6366771">
  <name>Wanyi Park</name>
  <time>2013-07-17T14:02:30Z</time>
  <extensions>
    <color>#3f51b5</color>
  </extensions>
  <type>29</type>
</wpt>
<wpt lat="50.007921" lon="4.6674367">
  <name>Geographical Center of Europe</name>
  <time>2013-07-17T16:48:46Z</time>
  <extensions>
    <color>#e91e63</color>
  </extensions>
  <type>72</type>
  <desc>The French Institut Géographique National has identified the geographic centre of the 15-member Union (1995–2004).</desc>
</wpt>
<wpt lat="49.988673" lon="4.3421088">
  <name>Espace Chimay</name>
  <time>2013-07-19T16:48:17Z</time>
  <extensions>
    <color>#3f51b5</color>
  </extensions>
  <type>26</type>
</wpt>
<wpt lat="50.844981" lon="4.3499865">
  <name>Manneken Pis</name>
  <time>2013-07-19T16:49:09Z</time>
  <extensions>
    <color>#e91e63</color>
  </extensions>
  <type>72</type>
</wpt>
<wpt lat="50.848522" lon="4.3541144">
  <name>Jeanneke Pis</name>
  <time>2013-07-19T16:49:51Z</time>
  <extensions>
    <color>#e91e63</color>
  </extensions>
  <type>72</type>
</wpt>
<wpt lat="50.848446" lon="4.3538167">
  <name>Delirium Cafe</name>
  <time>2013-07-19T17:50:02Z</time>
  <extensions>
    <color>#3f51b5</color>
  </extensions>
  <type>26</type>
</wpt>
<wpt lat="50.841666" lon="4.335815">
  <name>Cantillon</name>
  <time>2013-07-19T20:06:09Z</time>
  <extensions>
    <color>#3f51b5</color>
  </extensions>
  <type>26</type>
  <desc>Small Belgian traditional family brewery founded in 1900, they exclusively brew lambic beers and gueuze.</desc>
</wpt>
<wpt lat="50.835676" lon="4.3362429">
  <name>Brussels-Midi</name>
  <time>2017-07-08T09:29:24Z</time>
  <extensions>
    <color>#607d8b</color>
  </extensions>
  <type>73</type>
</wpt>
<wpt lat="50.844861" lon="4.355941">
  <name>Bruxelles-Central</name>
  <time>2017-07-08T09:31:26Z</time>
  <extensions>
    <color>#607d8b</color>
  </extensions>
  <type>73</type>
</wpt>
<wpt lat="51.216346" lon="4.4211093">
  <name>Centraal Station</name>
  <time>2017-07-08T18:30:56Z</time>
  <extensions>
    <color>#607d8b</color>
  </extensions>
  <type>73</type>
  <desc>The original station building was constructed between 1895 and 1905 and now is widely regarded as the finest example of railway architecture in Belgium or the most beautiful railway station in the world.</desc>
</wpt>
<wpt lat="50.404761" lon="4.438667">
  <name>Charleroi-Sud</name>
  <time>2017-07-08T19:28:58Z</time>
  <extensions>
    <color>#607d8b</color>
  </extensions>
  <type>73</type>
</wpt>
<wpt lat="50.056496" lon="4.4921221">
  <name>Couvin</name>
  <time>2017-07-08T19:58:05Z</time>
  <extensions>
    <color>#607d8b</color>
  </extensions>
  <type>73</type>
</wpt>
<wpt lat="51.196981" lon="3.2172413">
  <name>Brugge</name>
  <time>2017-07-09T07:07:11Z</time>
  <extensions>
    <color>#607d8b</color>
  </extensions>
  <type>73</type>
</wpt>
<wpt lat="51.202327" lon="3.2240649">
  <name>De Halve Maan</name>
  <time>2017-07-09T07:14:48Z</time>
  <extensions>
    <color>#3f51b5</color>
  </extensions>
  <type>26</type>
</wpt>
<wpt lat="51.20691" lon="3.2263305">
  <name>Bourgonge des Frandres</name>
  <time>2017-07-09T09:26:31Z</time>
  <extensions>
    <color>#3f51b5</color>
  </extensions>
  <type>26</type>
</wpt>
<wpt lat="51.208269" lon="3.2257869">
  <name>De Garre</name>
  <time>2017-07-09T09:42:16Z</time>
  <extensions>
    <color>#3f51b5</color>
  </extensions>
  <type>26</type>
</wpt>
</gpx>